Latitude,Longitude,city,country,Temperature,Humidity,Cloudiness,Wind Speed
4.702834624661975,-132.85742701093864,atuona,pf,299.214,100,92,4.86
-70.18768097241431,10.271577479055225,hermanus,za,254.364,57,8,5.28
-79.3372060893213,-15.55487726279722,cape town,za,247.964,67,48,5.68
-34.02790447768351,-89.95846689870031,lebu,cl,292.564,100,36,7.43
49.077629436526365,149.6503449680868,vostok,ru,272.364,92,24,8.11
-42.000457315231955,23.298720699933995,plettenberg bay,za,284.714,100,64,2.36
-67.01586247469994,-59.51010732057448,ushuaia,ar,266.264,87,0,3.26
75.47975894594043,-96.21964281528157,thompson,ca,239.714,44,0,5.36
-76.15314348427847,24.602335337021003,bredasdorp,za,214.014,0,0,1.81
30.440153840115727,4.953128767134956,warqla,dz,295.264,23,0,3.28
-22.657113387801644,-125.75486621849183,rikitea,pf,297.864,100,92,2.06
78.09982144207137,148.23669853756735,chokurdakh,ru,251.814,73,36,6.26
-69.46713357590643,33.0404708916943,port elizabeth,za,263.564,84,68,10.61
67.11422504711686,-79.07861368545032,clyde river,ca,247.564,85,8,9.13
74.05291655596136,97.75012292417404,khatanga,ru,252.764,67,88,2.16
-26.802562818097556,96.19902735957123,carnarvon,au,295.414,100,68,6.48
-64.6985144080474,33.972832111900914,port alfred,za,273.564,93,36,6.33
-33.50890972693292,48.417056394155026,taolanaro,mg,295.564,97,92,0.73
55.810595681576075,93.3423107387988,zykovo,ru,268.15,79,40,4
37.83007341251496,123.32641848980518,yatou,cn,281.014,85,44,8.61
-24.154723418252345,19.124700586869352,aranos,na,300.714,31,0,1.23
40.79063024253594,24.215092718505474,kipia,gr,287.93,87,75,3.1
-57.92298195721838,154.32887723543712,hobart,au,278.564,92,64,16.68
24.770891567232724,-75.60932128983725,rock sound,bs,298.614,94,76,1.81
12.435727829782337,-83.48807124915848,laguna de perlas,ni,303.15,74,40,4.1
28.862608061581284,-97.77678479336932,beeville,us,291.31,28,40,4.6
-27.88718069048072,114.74632627485641,geraldton,au,295.864,72,0,3.43
12.492319621835023,-102.00600793659223,acapulco,mx,301.814,98,80,6.33
14.097044646884058,-115.06272065330806,cabo san lucas,mx,298.764,99,20,5.36
16.533711729717993,-89.40324367733356,dolores,gt,299.15,74,40,4.1
29.67985694200746,66.43037973124555,nushki,pk,282.814,76,80,4.23
4.618716663113673,146.55718905309402,lorengau,pg,300.714,100,80,3.88
46.90040682078859,4.886687148329827,chalon-sur-saone,fr,279.03,70,90,1
-10.226681415020877,-99.46835498683693,puerto ayora,ec,299.264,100,56,6.98
-16.283417043537497,157.53601414466414,honiara,sb,300.964,100,92,5.46
41.37896774374241,70.65529214191758,naugarzan,tj,268.814,78,68,0.58
49.16550543068038,86.23145502767773,ust-koksa,ru,250.764,50,0,0.83
52.316181230461154,-102.94910533305685,preeceville,ca,275.214,90,32,4.01
-89.3148012801771,-112.6133500948915,punta arenas,cl,222.264,0,24,4.98
-79.7275784660526,171.38051999462255,bluff,nz,237.214,0,0,3.76
-53.380887228334586,125.08593958993112,albany,au,278.564,95,64,10.63
-32.88175698077585,149.14175593092682,wellington,au,286.09,100,40,1
-25.034969939617582,-174.1831032898005,vaini,to,295.614,100,88,5.68
70.24803329977308,-128.08431423407734,tuktoyaktuk,ca,267.664,82,80,5.41
49.383669076610886,-82.25429801388047,kapuskasing,ca,267.15,29,40,3.1
-70.15563253758293,178.54389674032416,kaitangata,nz,270.114,100,48,9.66
11.873329608128941,154.55637962902597,kavieng,pg,300.014,98,68,9.01
65.66826443626891,-40.70926068307102,tasiilaq,gl,263.864,78,76,4.88
30.750373773646103,-37.1559907147433,ribeira grande,pt,293.264,95,44,9.91
-21.800154444138684,174.98907189848302,isangel,vu,300.014,100,76,8.21
58.748893788468166,-118.99295763472668,high level,ca,279.214,55,0,1.48
-16.315388989837942,-80.29196792664413,pisco,pe,296.964,100,8,6.01
-17.95236834681465,47.56239595838596,anjozorobe,mg,291.164,93,64,1.58
25.632356069527674,122.8268519456172,juifang,tw,293.914,100,12,5.43
49.86445601881135,-147.9891867349458,kodiak,us,278.464,100,48,5.06
17.214418245727998,-102.67624034143687,lazaro cardenas,mx,300.564,100,0,1.26
74.54924648708746,44.00840336971089,ostrovnoy,ru,270.064,100,0,5.56
39.84089985546001,147.82954059030715,nemuro,jp,280.864,100,0,5.11
51.89359290367554,-58.52745549804901,saint-augustin,ca,268.214,85,76,3.51
2.562250870726629,156.28538943313276,namatanai,pg,300.564,100,24,3.61
38.53283173506395,-45.43775385092846,torbay,ca,291.214,95,8,7.68
-57.4049824893295,79.23037310553252,souillac,mu,274.464,100,76,11.31
-4.108560599623971,176.6229180472676,lolua,tv,301.264,100,48,1.61
58.014415597648,-3.131675768134329,lossiemouth,gb,280.18,81,0,3.6
46.507417440368926,-33.27790100634476,lagoa,pt,286.764,90,92,8.76
-20.172150554043867,167.05470682234954,fayaoue,nc,298.864,100,44,6.13
36.49178355293249,84.43229879628939,kuche,cn,251.464,84,0,2.28
-36.51563615482745,-22.145667272239052,arraial do cabo,br,290.464,100,80,7.36
-87.62031013467353,86.48923653029158,busselton,au,214.414,0,8,4.78
49.711599442070224,13.41891697151749,stary plzenec,cz,274.79,70,20,3.6
79.0799792912951,126.4185467237948,tiksi,ru,257.464,81,64,8.13
42.95747298715216,169.86709921092842,nikolskoye,ru,275.514,100,92,7.81
40.88516279547386,-21.460213133370786,vila franca do campo,pt,287.164,100,8,3.78
-62.441741595470205,155.38525180189924,tuatapere,nz,276.464,90,92,16.93
30.124947078525565,-132.9119809955393,pacific grove,us,290.264,99,20,6.93
10.004706428211577,110.31739514157925,phan rang,vn,301.414,95,0,6.63
84.6847316270939,57.26050165625952,belushya guba,ru,244.114,58,24,1.83
61.06964581556721,-131.74600327337555,whitehorse,ca,274.864,86,88,7.31
-16.242985626215514,135.62292091115887,ngukurr,au,299.364,71,0,2.28
3.8870404770511158,-179.56496461555716,vaitupu,wf,300.364,100,80,7.11
55.489716792550354,20.216529192124398,pionerskiy,ru,277.564,86,92,12.21
16.058147254364542,-167.75866506585305,kapaa,us,296.814,100,20,10.41
-3.7646875339361827,10.095874283859217,mayumba,ga,302.114,100,80,5.66
-80.39096540101662,128.53248839751933,new norfolk,au,225.764,0,20,11.23
23.510169365642895,-15.448683634239984,nouadhibou,mr,292.15,72,32,11.8
-51.35149883388476,-90.92343355432217,castro,cl,282.614,92,76,12.63
19.97398841350369,86.55921608561039,paradwip,in,299.614,98,0,3.08
-19.749721216129842,68.72049718222138,grand river south east,mu,300.064,100,92,9.61
55.50297018066499,-12.099469095719627,westport,ie,283.064,97,92,8.08
-44.57880979255634,159.23945329720368,te anau,nz,288.364,99,92,8.08
89.98542633434201,-57.709430359685456,narsaq,gl,238.064,0,12,1.03
23.37480261041432,-67.42227548379742,cockburn town,tc,296.164,100,36,3.11
-28.84858547694003,77.76794518068084,bambous virieux,mu,296.714,100,44,10.78
-47.68281214791948,-161.62324181811485,avarua,ck,286.614,99,100,5.11
66.91532858659727,-107.74972747279837,yellowknife,ca,261.514,76,48,3.66
8.070796680565195,176.00565264965235,butaritari,ki,300.264,99,36,8.88
36.913890109068305,-147.78915533786693,kahului,us,284.464,100,80,9.61
29.674719475424,-80.69889430707128,palm coast,us,291.86,45,1,8.7
24.23495432067959,-150.37920890151264,hilo,us,293.314,100,0,6.33
23.061236793447804,92.63124514273295,lunglei,in,293.964,78,0,0.78
65.94232494826906,19.23510622400218,skelleftea,se,268.16,79,20,5.1
-13.699257535650077,106.68516127532894,kawalu,id,301.464,100,76,6.66
32.290144061763684,121.62430167962333,juegang,cn,282.514,98,0,4.98
25.392382930799997,-1.196056396692768,adrar,dz,299.964,8,44,2.06
-58.21931254730373,-36.61877824445739,mar del plata,ar,275.464,92,92,4.33
-10.583566459447255,85.64612119978256,hithadhoo,mv,301.314,100,56,4.73
-29.823735564359332,27.336182361138924,mafeteng,ls,287.114,67,48,0.81
40.648638945309585,24.171769777849107,moustheni,gr,287.11,87,75,3.1
17.632947559217257,135.41449533683073,airai,pw,299.664,98,8,6.68
-33.83766207152967,-61.741612787791794,venado tuerto,ar,304.26,15,0,1.79
86.34599294784593,64.02482562937416,amderma,ru,243.464,31,12,4.76
20.995442006477475,124.7915475070734,basco,ph,298.014,99,20,3.86
80.08579218813261,-16.156145155438793,illoqqortoormiut,gl,239.864,87,12,2.08
87.03096278952748,136.0382086661915,nizhneyansk,ru,242.614,33,24,2.16
41.79784674035389,-68.81763736288346,harwich,us,274.164,100,24,7.36
30.777594272783787,-112.02412772821889,pitiquito,mx,298.15,31,0,1.81
3.9563838959894326,-171.32744566352397,saleaula,ws,299.464,100,88,8.58
64.19136535178271,91.57141000353045,turukhansk,ru,254.514,55,32,1.28
38.48456640781589,-60.22467605232701,halifax,ca,287.064,100,92,5.73
67.80668440677593,-154.68479865804744,barrow,us,265.364,85,88,1.31
-32.48169377571058,-75.34362897781206,valparaiso,cl,290.864,100,0,13.96
41.560792145035464,101.49353984471486,zhangye,cn,274.764,27,20,2.03
-60.46015450890923,51.91552370927499,tsihombe,mg,274.564,100,76,9.13
73.37328851673908,34.68470621428233,skalistyy,ru,271.614,100,12,8.16
-11.488637499062435,127.39891640286169,nguiu,au,302.914,100,32,3.86
55.382956735774144,-47.09656938013842,nanortalik,gl,275.764,98,64,17.33
-41.21035189632277,-75.65299292010458,ancud,cl,287.064,100,64,10.78
10.43628556477671,-95.58292687005415,ocos,gt,301.414,97,0,8.43
-48.28721243608973,-148.57843354135503,mataura,pf,285.714,99,88,9.91
13.639801947293876,-44.58104999121221,cayenne,gf,297.414,100,0,6.36
-29.56506448593975,151.6356740731698,inverell,au,288.92,94,0,0.63
53.70031918278184,44.901206504718004,issa,ru,275.37,71,8,1.48
-34.203781633827994,72.81180886773265,mahebourg,mu,294.214,100,0,7.21
76.94108216659245,33.354377157058195,vardo,no,266.564,74,0,9.16
51.88921788045562,-126.77655022480876,port hardy,ca,282.15,57,75,1
27.294360416635286,-123.4939972206909,lompoc,us,289.564,100,0,1.53
14.4521465472083,108.84722690002349,quang ngai,vn,288.564,99,12,0.63
-5.611647397790762,1.4635517397567241,omboue,ga,302.114,100,12,2.41
58.75241794641477,69.11006772947422,turtas,ru,269.564,80,88,2.63
10.587052866726651,21.24103006351919,am timan,td,302.714,13,0,3.21
-4.706860721620089,116.18275864212592,martapura,id,301.614,100,36,6.58
32.7889243996251,103.39504606117555,jiangyou,cn,269.264,69,48,3.06
18.975973130578865,-39.155430900269295,ponta do sol,cv,295.914,100,0,3.08
84.63306213290127,-89.52564740027623,qaanaaq,gl,244.464,56,32,6.56
12.003555535404118,125.04959343554395,san jose de buan,ph,297.814,97,68,3.76
-28.279560235459613,-25.851331912871075,vila velha,br,295.464,100,92,14.16
2.603941463969065,-112.96689970668697,san patricio,mx,301.264,98,68,5.56
58.814969609731406,125.20132867443624,aldan,ru,258.264,71,56,1.13
46.5248380322131,-66.77918089515353,fredericton,ca,270.93,49,68,0.45
49.458880005826245,16.93692955999279,plumlov,cz,276.39,52,0,1.5
23.61641773749571,-0.39183727876132934,tessalit,ml,299.964,11,68,2.83
57.463646481460785,131.5849547830117,chagda,ru,245.764,45,0,0.41
80.73376861176612,-46.36878305466544,ilulissat,gl,224.264,0,8,1.86
32.018694468757786,89.70505716464095,lasa,cn,259.614,85,64,2.76
61.2043229727598,153.2805963943664,talaya,ru,244.414,51,20,3.63
31.426858347478202,-80.81363670717803,wilmington island,us,292.2,100,1,2.1
-3.45232309600415,-32.744538314443076,touros,br,302.15,79,20,3.1
-8.68378299787554,159.05120557271425,buala,sb,299.364,100,76,1.71
16.72874559760649,-129.24655188853407,guerrero negro,mx,296.864,99,0,5.11
48.16200424235035,118.35352162676054,hailar,cn,275.864,30,0,5.31
-17.304956061462605,49.53311385076117,fenoarivo atsinanana,mg,300.964,100,8,2.36
62.70075814712865,-155.37513086200047,kenai,us,267.15,92,75,4.98
54.58175188845402,-132.46898376094262,ketchikan,us,284.15,71,75,3.6
67.74489411056271,35.22293771785914,lovozero,ru,272.514,88,92,3.21
83.85161817284387,18.30327230081093,longyearbyen,sj,250.364,81,88,17.68
9.699873198710236,76.47104222574694,vaikam,in,301.15,83,40,2.16
-16.708612077762297,-22.870884682039616,georgetown,sh,299.814,100,0,3.88
54.18820830534676,162.2559786100603,ust-kamchatsk,ru,272.814,100,0,4.08
-11.19411969370968,-152.02872963331797,faanui,pf,302.264,100,8,6.03
-9.152566233034165,98.47077585446425,bengkulu,id,302.764,96,76,3.96
30.620903545153013,-73.16975517684007,marsh harbour,bs,293.814,100,24,9.73
33.10717460140354,65.61179160913522,deh rawud,af,274.414,93,92,1.03
7.636910630484039,31.159875188218223,ler,sd,301.564,34,0,2.61
26.366104280076243,-20.64390756310138,los llanos de aridane,es,292.514,100,0,7.11
-9.320237535707975,-27.2204187796103,olinda,br,301.364,100,92,4.21
0.607403392228477,160.69238867921416,kieta,pg,302.214,100,0,1.76
-9.378161152880821,-51.65040056314788,conceicao do araguaia,br,302.764,74,32,1.03
34.96914481618991,-13.805095126639515,camacha,pt,288.764,100,0,9.71
-8.833350550268548,117.37605504314382,sumbawa,id,297.464,100,32,2.08
65.15703350568617,30.04013040760003,kostomuksha,ru,274.714,91,68,2.43
-3.319579879400422,84.15061021609574,hambantota,lk,301.564,100,36,5.86
82.71586623779947,76.93313406672144,dikson,ru,254.764,78,76,12.51
-57.475604672147306,-27.01363283319759,chuy,uy,274.064,95,92,11.98
42.50928879805656,152.7252623014,sentyabrskiy,ru,275.464,99,0,7.16
-15.11503034526882,-42.818232357887155,monte azul,br,307.214,34,32,1.91
-10.636343599829587,-4.560039149371988,jamestown,sh,299.314,100,68,5.76
40.07946038206072,112.95458372840096,datong,cn,273.264,44,0,2.83
8.682640378012763,-13.176001496342906,sawkta,sl,302.15,66,0,4.1
59.49609424794892,167.81655797321093,tilichiki,ru,267.114,100,76,4.63
-10.845881632274583,-57.422723236155406,alta floresta,br,305.264,64,20,0.83
85.42165706513845,5.637688874675689,barentsburg,sj,246.564,46,76,12.86
-1.9567010293221898,-164.24695630394092,samusu,ws,301.714,97,76,5.23
-13.846946128399253,-146.5938630442191,tiarei,pf,302.214,100,88,4.83
-42.77698284646563,62.88700943499245,saint-philippe,re,290.514,95,92,5.11
-15.766184141918416,14.237917547546886,lubango,ao,301.514,31,56,1.73
38.205014970570744,43.33342875628375,van,tr,274.22,64,75,2.1
47.97980215186871,-123.7093770322123,port angeles,us,285.78,54,1,2.1
39.65369387238664,-102.26942368899888,sterling,us,280.92,33,1,5.1
32.45313243169724,129.14941438441502,fukue,jp,284.364,100,92,9.38
47.53422565526586,-102.39584812663858,dickinson,us,275.27,80,1,5.1
-41.46377711431683,169.57473016345278,hokitika,nz,291.664,100,88,2.53
-19.803636943744465,47.72048040594959,antanifotsy,mg,292.014,88,44,0.86
71.94789490908474,-136.3111301385174,aklavik,ca,260.564,89,88,11.01
1.2828363155276605,41.17420630243936,afmadu,so,304.864,38,0,3.78
10.456312790623059,-73.68698812165302,pueblo bello,co,310.15,32,20,7.2
50.35229049223267,-92.38496660828916,sioux lookout,ca,275.08,47,75,4.6
5.012184304028622,27.06448469004863,obo,cf,296.064,55,0,3.21
38.658249993755305,107.05716457987762,shizuishan,cn,276.514,39,44,3.73
8.139050994545016,66.6720445961939,kavaratti,in,300.814,100,0,4.78
-16.109536901734245,-27.479055981576664,maceio,br,300.464,100,0,2.63
52.53150031813411,-52.0714886561246,saint anthony,ca,269.264,100,88,14.01
86.59824367433268,39.28920111252671,tumannyy,ru,244.364,57,36,5.58
9.263679579099573,-98.29919313281263,puerto escondido,mx,302.064,94,0,7.08
15.10740348052444,61.93477410073862,sur,om,297.614,100,0,4.21
-74.82120020083082,53.112714928897105,east london,za,223.114,0,0,9.28
70.97750544285103,3.1411777613428455,bud,no,271.564,100,0,4.08
49.83160429368695,58.44882192949623,khromtau,kz,273.364,96,92,5.58
36.537936377185986,-79.3801160008519,danville,us,285.74,30,90,3.08
53.6761403082898,-100.22469533835421,the pas,ca,278.15,52,1,2.1
58.628669484926434,-76.56754282419004,attawapiskat,ca,253.064,78,48,4.01
82.75813549772602,-58.35540114160574,upernavik,gl,239.15,66,90,4.6
41.13033300100125,-112.89690791557871,syracuse,us,273.764,92,44,0.81
-25.531989970859016,-23.28266740958361,caravelas,br,298.664,100,68,9.93
73.78027560873755,118.05258833338104,saskylakh,ru,253.714,100,68,5.76
50.64663981162059,19.0460029155808,czestochowa,pl,277.49,60,0,3.1
3.749749994298412,178.70000337342327,rungata,ki,299.714,100,76,7.66
61.70043143528329,-122.80590672532287,fort nelson,ca,283.364,63,76,2.93
-41.586277224309406,133.75247265375054,port lincoln,au,286.914,100,80,5.33
-13.76688521868887,18.13093423060198,menongue,ao,295.614,62,80,0.61
22.8972440202936,-60.8828777618555,the valley,ai,296.964,100,32,4.53
32.583127575319295,-118.91555048728515,rancho palos verdes,us,291.15,72,20,2.1
41.05239205656386,6.61327558562391,alghero,it,286.064,100,0,13.48
-50.41302080939907,129.9208011064831,mount gambier,au,282.314,95,92,6.36
-0.4466761682054141,-49.72037201201246,tucuma,br,296.714,100,92,1.53
1.9401220705509274,39.6906991547105,wajir,ke,306.15,46,20,3.31
16.83733992949405,-95.35407001868056,petapa,mx,298.214,50,0,3.11
52.023263994094805,-96.95843404113809,gimli,ca,274.15,64,75,1.5
61.80167891586967,145.32700303349168,kadykchan,ru,241.914,30,0,2.51
64.87748820846875,23.075502420862932,kokkola,fi,273.564,96,92,0.93
3.9766982640667123,-26.218946433203314,sao filipe,cv,300.164,100,0,4.46
-6.124121147211298,104.75796633907805,pringsewu,id,300.614,100,48,5.51
4.099644050178,-52.33280872120628,saint-georges,gf,306.964,38,0,2.21
-30.683628313457753,15.47662858129533,oranjemund,na,292.864,96,80,6.78
85.03957196960317,168.8385764856423,pevek,ru,251.764,72,36,5.08
-43.106593018916456,-40.255726666424124,rio grande,br,288.264,88,12,8.56
-31.399564678613757,-47.28445363365594,cidreira,br,296.964,100,92,9.11
30.76255459646498,19.540593795814033,ajdabiya,ly,290.864,75,0,2.48
-16.374977661911984,158.95975486223819,poum,nc,300.464,100,12,5.53
-38.308958453306566,-53.76478646523424,maldonado,uy,294.714,100,80,4.68
-51.71111390634108,127.31160437666404,esperance,au,279.114,95,8,7.81
75.6865197779835,-143.83875693171439,fairbanks,us,253.114,77,88,11.96
-31.873809645472242,25.717937242092148,cradock,za,292.114,73,0,1.36
57.831693747225586,179.15949242037442,beringovskiy,ru,272.064,100,20,9.28
-26.288514765967165,26.570626085153805,lichtenburg,za,292.564,69,12,1.86
75.18679437561795,-5.042714177076704,klaksvik,fo,258.164,100,12,5.76
-15.26547877596252,-61.11147204425288,san ignacio,bo,305.864,68,8,1.81
-21.612229615798753,144.12928697142223,charters towers,au,298.014,72,0,4.23
53.86943285435953,131.87154783513319,stoyba,ru,259.464,65,68,1.61
41.338854607117014,138.2994343066306,noshiro,jp,280.214,88,44,11.16
19.769087991094423,116.29730295689717,jieshi,cn,297.614,97,56,5.51
1.8748327739943846,14.024006499638972,sembe,cg,299.264,82,0,0.61
69.1492702226221,87.98749530929672,norilsk,ru,257.164,81,88,1.16
55.31402678812108,18.840083320266643,wladyslawowo,pl,277.914,92,88,11.53
27.876150673914495,145.69969016859733,katsuura,jp,290.764,100,0,3.53
27.422532282711572,74.02368655958225,nagaur,in,290.464,52,0,1.58
-24.67527776128061,22.630048315604938,khakhea,bw,300.764,33,8,2.41
-31.21840478093629,-25.93788307984761,sao joao da barra,br,294.964,100,0,12.26
4.910293088881318,-2.807606464446536,axim,gh,302.164,98,0,5.51
17.32246695246573,-67.39924338098913,lajas,us,299.114,98,0,7.36
-8.085114972115875,45.5260340989189,mitsamiouli,km,302.464,100,0,2.73
66.29116388690252,62.29173901203362,verkhnyaya inta,ru,264.864,62,76,2.43
65.90733570594321,-68.26629862285075,iqaluit,ca,245.264,51,12,8.13
-4.152355231861492,-53.51417874183147,altamira,br,300.964,84,64,1.26
49.72319048975754,-13.19465604700224,dingle,ie,284.464,96,80,7.78
-18.65203821067216,-46.83230611686818,patos de minas,br,298.71,11,20,1.34
68.96887648713854,-176.38743569860367,mys shmidta,ru,254.964,76,76,10.73
-50.002079894187744,179.7913683261765,waipawa,nz,283.114,99,92,3.61
49.14741467562894,-175.3248323533497,provideniya,ru,276.164,100,92,17.71
11.23677896133293,78.86830559572752,perambalur,in,300.15,78,40,4.1
11.204560558381232,33.85717086456529,galgani,sd,301.864,22,0,3.96
17.73951211313117,-130.28643828731893,san quintin,mx,295.964,100,8,4.43
-20.502235733213823,-48.781179818704885,barretos,br,304.864,65,12,3.73
30.377639885248215,108.92319513499973,lichuan,cn,276.114,83,12,0.93
51.213907612030965,17.16194305307411,trzebnica,pl,278.54,60,0,5.1
-38.6652311196759,152.7909639880026,batemans bay,au,294.964,100,92,7.53
48.20704939541224,12.96169365750481,simbach,de,275.86,69,40,3.1
35.306234485466064,-109.01921564980739,gallup,us,285.15,37,1,4.6
73.34506145564387,176.64569933019334,leningradskiy,ru,256.614,85,68,17.21
66.39286733097924,162.58647484100095,cherskiy,ru,248.214,39,68,2.28
65.83104280711473,90.52715624951492,svetlogorsk,ru,254.064,70,48,1.36
45.827064136447405,-89.03669188520277,merrill,us,275.99,47,90,5.1
61.49884325795111,-26.935870423311655,olafsvik,is,279.864,98,24,12.16
83.63253036229182,91.24208415696029,talnakh,ru,260.464,83,68,5.11
-20.74692759703956,137.86344155374758,mount isa,au,292.964,63,0,1.63
38.84882637737198,-96.53891998863558,manhattan,us,283.68,37,40,4.1
31.805224743850943,-120.64045444061611,isla vista,us,288.164,98,0,4.08
16.292104157187012,-159.53728514287184,ewa beach,us,296.864,100,20,7.88
20.13839568435641,-72.01379397133339,cap-haitien,ht,300.15,61,20,5.1
4.170507030684703,48.7872739036236,hobyo,so,301.314,98,8,6.93
-37.19603775407374,-63.52856761534568,santa rosa,ar,297.564,25,0,4.86
33.77429644354207,-66.7298090496463,hamilton,bm,287.364,100,92,7.71
-3.797244430780438,54.23974334343066,victoria,sc,302.564,100,8,2.18
9.25672845542762,129.21955137894247,bacolod,ph,299.864,100,92,7.91
51.92839816059481,80.52994168166913,volchikha,ru,260.314,71,32,2.81
-16.152213014094443,-166.33356222279838,alofi,nu,302.914,96,32,2.13
44.63344728963213,111.15802373179156,erenhot,cn,276.264,52,0,5.08
56.30905756762422,33.58733265841411,olenino,ru,278.714,86,92,8.21
-33.57004896103946,22.366257273331968,oudtshoorn,za,293.15,94,90,1
23.784972698682438,73.06633837686755,idar,in,291.114,51,0,1.31
51.86035039341829,74.60106110973643,ekibastuz,kz,258.114,76,8,1.83
-18.2231132031108,142.41554341588335,atherton,au,296.114,93,24,3.06
53.51770977595788,-66.41097664939929,sept-iles,ca,258.964,88,44,4.41
48.487710103212265,-124.91367569604166,ucluelet,ca,289.72,39,1,4.1
35.80746766987747,8.306925529429947,manzil salim,tn,286.15,58,40,6.2
55.69674513623775,10.485522123284738,otterup,dk,277.68,69,0,3.6
-4.748532300962978,7.723503695507219,gamba,ga,302.264,100,80,4.41
28.867367701601538,119.67798540745883,jinhua,cn,277.214,85,0,0.71
44.56166304674193,72.48994461850705,shu,kz,274.764,46,0,10.13
51.21248877684829,-48.0509679944839,bonavista,ca,272.264,100,32,17.93
-10.911938615702297,122.90084771017814,kupang,id,301.014,100,36,6.78
-12.709656746823015,62.51171720954321,grand gaube,mu,300.464,100,88,6.08
57.62210108183635,-19.255906075553156,vestmannaeyjar,is,283.114,93,92,12.96
48.46054902731731,-93.14532178612976,fort frances,ca,276.39,59,1,4.1
50.0426985899538,51.17992232702977,zachagansk,kz,271.564,93,32,4.56
22.500268496005503,37.513039949523034,jiddah,sa,297.714,94,24,6.13
-12.183985900622474,154.81059545992207,samarai,pg,300.214,100,76,4.33
37.844860873200346,-6.013134448681342,brenes,es,294.05,40,0,1.5
55.40096482726341,50.35485332037163,rybnaya sloboda,ru,266.664,73,0,1.86
-9.531069850400613,171.32613873134596,lata,sb,300.614,100,48,1.86
8.953819575962711,98.33932040181645,phangnga,th,297.464,98,88,0.28
-20.29479102110824,55.96440751104217,sainte-suzanne,re,300.764,100,48,5.41
29.257445647831503,129.45589895810184,naze,jp,293.264,100,76,12.28
43.24209644757667,-113.55804751545342,rupert,us,277.15,48,5,3.6
41.864959462584295,109.82107394251096,dongsheng,cn,276.264,36,0,6.03
18.450836230061896,21.870086992485767,faya,td,297.764,11,88,4.08
29.744656793994707,136.55107841833018,shingu,jp,289.864,100,92,3.88
60.90700720854065,88.72527000852381,teguldet,ru,268.264,80,80,1.51
-21.051106840022854,-54.847517145955095,sidrolandia,br,300.15,74,40,3.6
12.45717966462665,-13.736380094216486,koundara,gn,311.914,16,0,3.43
25.700791115811555,-91.38147100993432,houma,us,292.364,100,92,9.58
14.607903446290848,-99.8186854449592,tecoanapa,mx,301.564,100,0,1.23
-28.046671730647326,-153.83306641962557,avera,pf,297.064,95,92,12.41
36.81915188863739,-99.12425621866878,woodward,us,286.76,54,1,5.7
31.933488530172156,-2.7133497329115244,fez,ma,297.15,12,40,4.1
21.80526945581761,92.34791603454374,bandarban,bd,295.464,63,0,1.08
37.40766164299639,119.22923327815641,hanting,cn,285.864,53,0,7.11
7.70780588583537,45.867932814756244,odweyne,so,298.714,35,0,3.31
-11.355993212244314,14.351937012633783,sumbe,ao,295.464,94,64,0.96
0.19245415337064742,171.93823148220588,tabiauea,ki,299.064,100,92,7.16
40.58280096337501,59.51846000249503,dasoguz,tm,283.314,96,44,4.53
-29.14213973211205,28.422423094914564,thaba-tseka,ls,281.714,91,0,1.18
22.361450038284204,-83.72104297834088,pinar del rio,cu,302.364,58,24,2.83
25.29619623540418,35.3351248895587,umm lajj,sa,295.914,98,0,6.78
24.392313371724413,8.456718460364641,gat,ly,295.064,29,68,4.78
9.46752891768,-21.06557835241867,oussouye,sn,297.264,100,0,4.16
11.307401263091805,118.58442731158488,bacuit,ph,301.564,94,24,4.21
46.840439459794936,7.267655004479252,dudingen,ch,276.1,86,75,4.1
20.341433349759768,-108.22580545945627,bucerias,mx,295.464,100,0,3.41
12.484972257207772,-3.96792371177915,nouna,bf,307.464,29,44,1.38
-43.83657807562206,171.1005193450453,fairlie,nz,287.33,100,92,0.91
13.367936307251085,-48.19454787837705,sinnamary,gf,297.464,100,64,6.86
-17.502112946187736,-178.04641085967484,neiafu,to,299.864,100,32,1.83
19.57892774005704,128.21551061811613,hirara,jp,298.814,100,88,4.38
38.13352737662882,-101.6199387606986,garden city,us,283.46,62,1,4.1
-62.07694362803307,26.959984143256236,kruisfontein,za,274.714,96,88,12.08
46.80986176223874,17.358502987875085,vonyarcvashegy,hu,279.15,60,0,2.1
0.270694367748348,98.22066675249943,sibolga,id,303.564,99,56,2.06
-25.805993947779157,-76.0274358447897,taltal,cl,292.814,100,0,9.23
37.52630372361466,59.75067303679265,kaka,tm,284.064,98,68,0.56
40.25403834564949,45.47234778217327,tsovinar,am,269.764,98,88,1.53
27.09494088377589,155.08198861327486,hasaki,jp,291.814,100,36,7.81
-32.97044417336503,31.054408866896978,umzimvubu,za,296.564,100,44,5.31
-0.19011161165930446,-1.5030274393225511,takoradi,gh,302.114,100,8,2.93
24.552613195498594,-87.10613198980495,isla mujeres,mx,295.114,100,100,9.58
16.522381908579007,24.93190884488149,kutum,sd,293.914,13,0,3.76
35.97690303367425,-134.94167331480787,fortuna,us,286.714,98,8,8.33
38.564766491883375,-4.897930923716046,pozoblanco,es,287.764,45,0,2.76
62.429185463183586,-57.35853076502835,maniitsoq,gl,262.314,100,24,15.18
54.236693305004195,147.75896238288107,ekhabi,ru,266.364,100,88,8.58
69.00232849912402,-15.707672353821437,husavik,is,270.37,71,92,0.89
57.055143870079576,54.673664485327265,yelovo,ru,267.064,71,20,1.08
-0.06677201060999494,-62.220542474613936,barcelos,br,308.264,44,32,3.78
-6.920580840388396,12.316387403161457,soyo,ao,302.464,100,32,5.76
25.43946354616824,49.69444343411544,buqayq,sa,292.15,25,0,2.6
79.75741763309281,24.435153522876504,havoysund,no,265.614,86,76,18.36
51.283937011566564,129.93246143774326,romny,ru,262.764,73,0,1.16
16.507635957953227,15.21630539003823,mao,td,299.064,20,56,3.06
0.3719755541660277,-83.99510087776953,manta,ec,297.114,100,36,3.63
17.92449957336335,-95.68769501938637,playa vicente,mx,299.114,55,12,5.58
-31.514469209394896,35.61013735588233,richards bay,za,297.714,100,64,7.58
14.335429607595358,8.68894756318764,zinder,ne,308.15,7,44,5.1
16.470477571395577,105.17310412572527,savannakhet,la,301.714,48,48,4.73
41.451085123989,-8.330664093864243,ponte,pt,287.94,62,0,5.7
14.261146440843987,-126.24208843455241,constitucion,mx,298.214,98,36,7.26
67.93889702021536,49.62609619703943,naryan-mar,ru,273.164,92,92,4.63
45.615435416951584,-61.38735275838762,port hawkesbury,ca,272.37,54,90,5.7
25.53295302376884,19.19093239859515,awjilah,ly,289.314,30,0,1.51
44.90722197348771,108.83114839247963,darhan,mn,275.614,63,8,4.96
22.43166225386355,26.599031457392044,aswan,eg,288.714,19,8,1.93
51.397652394842,-67.731954305277,port-cartier,ca,260.964,74,88,2.96
41.10984297673809,145.0973805896321,kushiro,jp,279.364,86,0,8.33
30.117700193530496,-53.486840984153275,saint george,bm,292.214,100,64,0.51
29.777662471134263,53.173094243424174,marv dasht,ir,281.15,72,20,3.1
60.85846876256528,-169.08027861545608,lavrentiya,ru,269.514,100,76,3.31
31.210560923395505,111.56301067510094,yichang,cn,280.564,89,0,1.01
66.62728609623673,21.407258396716685,boden,se,268.15,79,90,4.6
19.242687137732418,-159.66724604718448,nanakuli,us,295.514,100,36,7.93
41.908763441326414,120.599815620963,beipiao,cn,284.564,36,0,5.01
49.4651256182608,22.863383145299736,khyriv,ua,278.15,82,92,1.03
24.724056458929937,42.91129582564648,buraydah,sa,286.314,23,0,3.98
-31.21066105340548,172.67285233426816,ahipara,nz,294.964,100,88,5.28
23.75925045608686,109.42435710302442,laibin,cn,289.364,97,92,1.13
41.26332719774169,130.77603050248376,khasan,ru,280.614,82,0,2.73
45.56685385867863,66.50256489040913,tasbuget,kz,278.214,58,12,9.01
27.162922123361255,-81.69102758441264,sebring,us,295.33,64,90,5.7
87.00674970916131,31.313754627950033,berlevag,no,244.264,57,64,5.21
3.3426760443104797,-4.849714162541773,grand-lahou,ci,302.514,100,0,5.23
13.628264772884535,101.39305111902797,plaeng yao,th,302.52,83,20,3.6
52.89165058123018,86.46678609966472,solton,ru,256.414,58,0,1.26
-40.16464630804206,22.794758438111245,knysna,za,289.014,100,92,5.66
29.430588065058785,60.74381192281547,khash,ir,288.15,22,0,9.3
66.40285941240091,111.8140051851596,aykhal,ru,248.964,72,12,1.06
5.809040657318519,-60.398892396722474,bartica,gy,299.164,72,8,1.18
15.531253584565661,2.7871326807585035,filingue,ne,307.264,23,8,1.41
-3.258147044571686,-6.618862345781366,harper,lr,302.164,100,68,2.81
62.93489929003718,153.9998166327432,seymchan,ru,242.814,31,48,1.71
8.986070662036255,52.81489161091898,bandarbeyla,so,299.814,100,100,5.36
-33.038571715982044,40.26420216510161,beloha,mg,295.314,100,48,4.18
51.15694216612698,-86.66418665836201,longlac,ca,270.514,54,80,1.61
20.523973117745555,35.98066193696573,sinkat,sd,295.414,52,88,3.51
65.65027528525184,85.09340016394623,igarka,ru,255.064,66,48,1.36
-8.221592736498678,14.939069947751335,camabatela,ao,295.514,92,64,0.46
48.084843677050344,-118.90355870343942,moses lake,us,281.12,52,1,5.7
55.12598147395079,-167.08766062509213,bethel,us,273.414,100,68,3.21
5.453794069876082,114.7934332079879,labuan,my,299.2,88,75,7.03
71.23580159734496,-149.05848306620308,college,us,265.964,93,92,6.58
-20.901566384129637,55.03059281252504,saint-paul,re,297.91,69,20,6.7
-15.88117415522666,44.60988151034303,mahajanga,mg,302.114,100,0,2.28
67.88785619278286,31.537875847167754,verkhnetulomskiy,ru,272.314,89,88,1.93
-5.96129161850601,132.88233983839166,tual,id,302.064,97,64,5.51
31.661482142097185,84.76291624208147,jumla,np,254.064,66,0,1.51
-28.800302170678727,9.808063367160031,luderitz,na,294.864,100,88,5.31
18.88712500791779,4.262653396548302,kidal,ml,304.714,24,44,1.41
2.5590575729941065,65.80474104643397,kudahuvadhoo,mv,302.164,100,100,3.78
31.06401515721305,8.867598690821609,nalut,ly,293.564,29,0,2.66
16.648896523248695,64.38403189175216,porbandar,in,297.864,100,0,4.33
30.946133080985973,16.463248638080415,surt,ly,292.864,59,0,3.33
21.47646310712372,106.09405848560579,bac giang,vn,292.15,100,75,1.5
-42.21063711844533,-5.950647216016193,saldanha,za,285.214,100,80,13.61
62.336775871705726,-137.79564399719334,haines junction,ca,274.564,80,20,6.03
-1.164266626164661,102.3265632448169,mendahara,id,295.564,92,56,1.03
2.4027309699806523,-111.67747569603617,coahuayana,mx,300.114,100,64,4.83
25.20662660125268,46.01322754483451,riyadh,sa,286.164,33,0,3.31
-1.8484443466735883,88.45875083917298,meulaboh,id,302.664,99,0,4.38
-40.21921817818759,143.18823282998505,colac,au,290.964,95,36,6.63
15.566982924270732,-54.4907071632736,bathsheba,bb,298.414,100,0,5.68
12.56076262485405,103.54122440834243,pousat,kh,298.264,86,20,1.93
62.58648673433865,54.4517909121744,voyvozh,ru,272.714,92,88,2.43
-22.547645350976808,26.419217867134137,moiyabana,bw,299.264,36,44,3.73
62.98173097589938,70.23401239856821,cheuskiny,ru,266.964,84,56,3.26
9.103522178396133,-54.38618732269893,marienburg,sr,299.164,100,8,7.68
76.3578268234055,174.6371211276134,komsomolskiy,ru,250.914,78,76,15.11
70.254224890709,-120.30000336410366,norman wells,ca,263.814,90,68,5.81
-2.775767751190614,43.6376320772161,bur gabo,so,301.264,100,0,5.98
39.41060680122891,59.33788786363368,annau,tm,281.864,92,12,4.23
20.04896899418138,84.15325153178361,udayagiri,in,288.464,92,12,1.16
21.35514552388723,-54.852838852736994,codrington,ag,295.864,100,88,5.08
59.71476667074057,57.79328393856426,aleksandrovsk,ru,267.614,83,20,3.63
46.853720235656255,-4.83679981418922,quimper,fr,283.564,100,92,8.46
7.915007512874979,-77.01225428771166,unguia,co,304.15,66,75,6.2
8.869578976936182,-59.21620823613007,mabaruma,gy,299.364,100,64,6.93
47.8457668561949,6.51095672964388,luxeuil-les-bains,fr,277.7,80,75,1.5
-16.686623547815117,112.8774617888933,karratha,au,302.814,95,0,3.26
73.26142474200711,1.9007324188407893,roald,no,267.114,100,20,6.18
-47.57606534771071,174.5197926239154,waitati,nz,286.214,100,92,2.43
12.158263897196804,95.57034674933857,port blair,in,301.764,100,0,2.18
13.710018381021158,62.45719946394246,salalah,om,298.164,100,0,5.21
-17.41830731625086,117.79663397937242,port hedland,au,303.414,100,8,3.71
57.02938049556508,-116.74787975434458,peace river,ca,279.064,53,0,1.51
21.019760227408497,-101.17983660377055,guanajuato,mx,295.73,46,75,2.6
45.47580053239116,53.460422957088895,karaton,kz,278.864,76,64,4.68
22.434345740956758,66.56944175112375,keti bandar,pk,297.714,98,0,2.86
5.176791814924428,111.49535862734007,bintulu,my,300.764,99,0,4.78
47.8827415453155,53.474106384749916,makat,kz,278.564,80,92,4.46
-16.342189648285228,169.7820504653945,vila,vu,301.364,100,64,6.08
6.675479309610282,36.38226009213298,bonga,et,295.614,44,24,0.93
42.49930024778109,-112.8953291771532,pocatello,us,279.62,45,1,4.1
10.820285119761465,55.13215827117469,bargal,so,298.914,100,0,4.33
-16.652184752885773,65.1488622467241,quatre cocos,mu,299.964,100,56,9.73
51.23115705875111,118.17751996785478,vershino-shakhtaminskiy,ru,267.414,58,92,1.96
-10.621068845844647,134.16091268311033,maningrida,au,302.214,100,12,7.81
-34.316848968997135,-41.76709571730905,laguna,br,295.664,93,92,12.58
61.77666014946635,20.113935180897244,kristiinankaupunki,fi,274.464,95,92,2.76
-11.67249586040522,105.05585787423166,palabuhanratu,id,301.464,100,76,6.41
19.0552530646777,105.3645559131121,vinh,vn,294.764,98,92,1.03
16.49449002110785,39.23942493377615,ginda,er,294.814,74,0,1.41
56.54005034585808,149.5638366442755,arman,ru,260.564,90,0,6.93
37.861866926793866,143.05107449422047,kesennuma,jp,286.114,100,56,8.81
14.999229439927504,-80.78846224072078,iralaya,hn,300.064,95,24,6.81
-32.59180786628525,173.54534735666533,kaeo,nz,294.914,100,36,7.43
-34.76927642075259,179.2903873384294,ruatoria,nz,293.064,100,44,6.93
37.49340802076004,29.602394364391188,denizli,tr,283.15,57,0,2.6
10.35364526462277,40.082085224245134,abomsa,et,294.714,48,0,2.16
65.84721643240945,94.32879643087267,baykit,ru,252.114,53,44,1.26
-20.482246875425545,-75.39730054505173,camana,pe,294.364,100,80,4.73
38.0944214114717,-114.15405685233256,saint george,us,283.15,48,20,1.34
-11.999552146540083,9.486742496890884,benguela,ao,299.764,100,0,6.33
52.9545197756313,-115.14260278486415,drayton valley,ca,282.014,45,0,1.53
9.401619727379554,-87.82021047014722,santa cruz,cr,300.264,94,8,8.78
57.07300178317033,-28.216674932172793,grindavik,is,280.464,95,88,13.26
28.267918133008692,82.96156354665669,baglung,np,284.264,62,64,1.13
48.45194991863076,92.08972500380798,ulaangom,mn,260.264,41,36,3.41
34.33523193779641,-80.6705802886405,dentsville,us,290.92,17,1,4.6
-34.230410310698986,34.79355720079607,margate,za,296.014,97,0,6.21
59.16031408395071,142.08362159407358,okhotsk,ru,247.464,41,0,1.08
29.407604803339353,133.43768456919258,kushima,jp,292.964,100,88,10.46
23.201693926419125,114.0681031580408,luoyang,cn,294.75,88,44,2
-7.008135003669125,-72.22608672735365,ipixuna,br,306.264,57,48,1.58
-31.99110629517461,-63.52458011155693,villa maria,ar,300.164,73,0,3.03
51.49211710626517,159.94959703784792,petropavlovsk-kamchatskiy,ru,273.064,100,76,7.93
63.12899209581107,78.41373911834023,tarko-sale,ru,261.614,77,68,3.63
24.830319603113637,130.8964786484687,gushikawa,jp,295.964,98,0,7.31
-54.70208306412387,132.79585658395456,portland,au,278.364,99,44,8.11
16.177213645760773,71.67154779043449,malwan,in,300.264,98,0,4.96
34.65931926050085,82.33267617888527,leh,in,249.214,67,0,3.03
67.43035249308545,112.23357238574215,udachnyy,ru,248.114,39,0,1.16
9.385814000234248,-81.29198226718853,bisira,pa,299.464,100,48,5.78
-37.66952576930906,145.40780556993445,healesville,au,290.43,93,40,1.5
-31.23425102879507,-66.65291336399048,la rioja,ar,298.114,75,0,2.21
-19.592456346313995,37.264150321337894,quelimane,mz,301.264,95,68,6.98
16.99000948581542,123.67717468040212,dicabisagan,ph,299.114,100,44,4.83
31.424853834240665,110.10656871006461,enshi,cn,275.164,90,32,0.73
72.64135211195773,142.79674439911184,deputatskiy,ru,245.764,50,44,1.91
31.095964818146186,169.82945178094678,severo-kurilsk,ru,289.664,100,92,8.68
-23.96509557280315,-65.99460871789601,jujuy,ar,293.364,9,0,1.73
60.301101868525166,69.33208133293269,gornopravdinsk,ru,269.064,87,56,4.23
-5.575148962157186,0.6476460090921705,port-gentil,ga,302.064,100,0,2.08
28.44906627194969,59.635299776782034,bam,ir,286.014,52,0,4.86
26.975593862592945,98.05172888139526,myitkyina,mm,285.664,99,92,0.81
57.43584491994059,39.95260531742005,gavrilov-yam,ru,275.15,80,0,5
-27.16142348956985,-52.55208284218911,xaxim,br,293.15,100,75,4.1
43.42368417781327,38.17934450422783,arkhipo-osipovka,ru,282.614,98,0,4.11
13.504183781162467,-86.9950299395158,apacilagua,hn,298.84,36,20,7.2
-25.21007258331423,167.85776491435524,vao,nc,297.864,100,92,6.81
-7.559717473381525,107.2336796635878,banjar,id,300.114,100,88,6.46
32.4663449478348,105.58796884484093,guangyuan,cn,286.48,75,80,1.13
-15.331566425194467,-62.81668336547634,urubicha,bo,305.114,61,32,1.76
69.43604187813904,78.85114503163788,tazovskiy,ru,261.364,79,88,5.13
24.974428074913774,118.37562137156817,ximei,cn,292.15,77,75,2
45.656301841146615,-76.68339478152336,renfrew,ca,272,38,1,2.1
33.96603371257801,112.23945323796914,yunyang,cn,276.764,65,0,1.13
23.388463023772246,61.428917699946226,jiwani,pk,297.214,97,0,6.76
37.46043362871566,90.15674317278649,korla,cn,248.314,24,0,2.53
34.004108778678145,45.347566901316696,mandali,iq,277.714,91,0,1.46
-11.923580137034321,-53.08621645310825,sao miguel do araguaia,br,307.614,46,48,1.31
55.49371317102049,72.07557473051378,rostovka,ru,258.614,74,12,1.61
14.449384348855162,-65.51450853014677,arroyo,us,299.314,98,0,8.61
1.165950708221402,66.62759511972823,thinadhoo,mv,302.264,100,64,2.41
4.3460888317212465,-60.61783360051952,lethem,gy,308.364,26,0,5.11
-24.406526133768452,29.663795043753993,lebowakgomo,za,294.29,56,0,1.5
20.2418775813465,-99.0780445655494,tepatepec,mx,293.164,54,0,1.53
4.859314148641218,114.22800288786596,miri,my,296.15,100,75,5.36
-1.7732362641595785,-77.51347885655558,palora,ec,301.15,61,75,1
-20.5901227244335,134.9847794972422,alice springs,au,292.564,34,0,2.93
2.350141090739342,-10.821410221245685,buchanan,lr,301.964,100,68,2.88
62.81872882230428,39.574891967283804,oksovskiy,ru,274.464,92,92,6.46
19.019195166368007,110.82629183049903,wanning,cn,297.614,96,44,5.28
-27.398718778249794,146.88117110220708,roma,au,291.364,67,0,1.46
8.33152750076377,24.412718210600474,raga,sd,299.214,22,0,4.16
43.10830962549494,-80.08462688682069,caledonia,ca,275.85,47,75,7.2
-22.629643625429892,148.42614512672736,moranbah,au,291.764,96,0,1.31
24.74683191577367,142.4537225581475,shimoda,jp,294.714,100,0,6.13
64.07708634797416,32.99558995823591,segezha,ru,274.664,92,88,2.28
45.27538812109509,21.598308482596195,forotic,ro,284.8,54,0,3.1
69.46239058143237,68.70788524497391,aksarka,ru,267.714,84,88,4.98
-7.193589051532825,-54.61019189116709,sao felix do xingu,br,303.964,64,68,1.31
-18.59094644590121,24.525708123649594,kachikau,bw,303.214,28,80,2.76
59.05032452886613,-48.40834923459306,qaqortoq,gl,275.314,100,68,6.21
66.88604972085588,66.92999273489337,salekhard,ru,258.214,60,0,2.06
-30.810419385431324,-63.76521980328657,cordoba,ar,299.564,95,0,2.13
-13.956347149954723,162.53683875162557,kirakira,sb,301.814,100,24,4.61
48.75591095190211,9.008867013008114,leonberg,de,276.91,75,75,1.5
-23.948921727896717,-49.55149099632976,senges,br,297.59,96,32,1.34
43.28268430311445,116.84267571255225,mujiayingzi,cn,271.114,47,0,5.63
41.793455126009064,-115.49199355446487,elko,us,278.064,58,68,1.63
26.36443182967531,127.79971046861237,okinawa,jp,293.81,83,40,7.2
1.9156653734866609,-77.14182981205056,mercaderes,co,296.15,69,40,3.1
22.222098351456438,-4.2428216575984266,taoudenni,ml,300.714,10,36,2.28
-24.66582979510197,-83.70348776476182,marcona,pe,293.814,100,48,8.88
48.90318049819052,78.10747836394881,ayagoz,kz,262.264,85,64,4.96
-2.623969069649945,-79.12691609151551,canar,ec,299.61,49,75,4.1
48.747933391809966,132.8101258221925,birobidzhan,ru,270.414,48,0,2.36
7.87902788664347,-166.46912858157856,makakilo city,us,299.814,100,48,11.18
21.283773209074653,-65.78113102916078,san juan,us,298.614,99,0,8.08
-4.29391023372105,104.94893201890392,baturaja,id,295.364,97,92,2.58
17.419978968588865,-77.11516062478832,may pen,jm,301.15,58,75,4.1
46.12165495949995,-142.60647033143937,sitka,us,280.864,98,92,9.56
17.54404308303762,-79.9821008480396,lucea,jm,299.964,98,12,4.38
